City_ID,City,Country,Date,Lat,Lng,Max Temp,Humidity,Cloudiness,Wind Speed,Current Description,Rain Inches (last 3 hrs),Snow Inches (last 3 hrs)
0,Yellowknife,CA,2020-05-08 18:37:14,62.46,-114.35,41.0,74,90,13.87,overcast clouds,0,0
1,Busselton,AU,2020-05-08 18:36:47,-33.65,115.33,46.99,66,1,6.04,clear sky,0,0
2,Los Llanos De Aridane,ES,2020-05-08 18:40:39,28.66,-17.92,71.6,68,75,5.82,broken clouds,0,0
3,Boguchany,RU,2020-05-08 18:44:37,58.38,97.45,39.0,77,100,1.3,overcast clouds,0,0
4,Kapaa,US,2020-05-08 18:36:11,22.08,-159.32,75.2,69,1,16.11,clear sky,0,0
5,Pevek,RU,2020-05-08 18:38:33,69.7,170.31,29.05,92,0,8.57,clear sky,0,0
6,Comodoro Rivadavia,AR,2020-05-08 18:43:44,-45.87,-67.5,60.8,87,100,3.36,light rain,0,0
7,Kathmandu,NP,2020-05-08 18:44:38,27.72,85.32,62.6,88,20,2.24,few clouds,0,0
8,Ushuaia,AR,2020-05-08 18:34:23,-54.8,-68.3,42.8,100,83,4.7,fog,0,0
9,Dikson,RU,2020-05-08 18:36:35,73.51,80.55,28.8,97,100,24.81,overcast clouds,0,0
10,Brae,GB,2020-05-08 18:38:19,60.4,-1.35,50.0,76,99,14.99,overcast clouds,0,0
11,Hermanus,ZA,2020-05-08 18:36:48,-34.42,19.23,64.99,73,0,1.99,clear sky,0,0
12,Camacha,PT,2020-05-08 18:42:44,33.08,-16.33,68.0,68,20,10.29,few clouds,0,0
13,Mataura,NZ,2020-05-08 18:36:26,-46.19,168.86,46.69,84,90,3.96,overcast clouds,0,0
14,Saint-Philippe,RE,2020-05-08 18:36:34,-21.36,55.77,73.4,69,20,8.05,few clouds,0,0
15,Mar Del Plata,AR,2020-05-08 18:35:01,-38.0,-57.56,62.6,59,100,20.8,overcast clouds,0,0
16,East London,ZA,2020-05-08 18:36:43,-33.02,27.91,69.71,80,69,6.82,broken clouds,0,0
17,Gao,ML,2020-05-08 18:40:59,16.64,1.64,93.54,11,0,7.9,clear sky,0,0
18,Vostok,RU,2020-05-08 18:37:45,46.49,135.88,40.23,95,3,4.81,clear sky,0,0
19,Waipawa,NZ,2020-05-08 18:44:43,-41.41,175.52,53.6,87,25,2.24,scattered clouds,0,0
20,Enshi,CN,2020-05-08 18:44:43,30.3,109.48,67.5,84,100,1.36,light rain,0,0
21,Albany,US,2020-05-08 18:35:12,42.6,-73.97,59.0,17,100,2.46,overcast clouds,0,0
22,Toora-Khem,RU,2020-05-08 18:38:31,52.47,96.11,31.08,94,0,2.86,clear sky,0,0
23,Vaini,TO,2020-05-08 18:36:27,-21.2,-175.2,78.8,94,75,10.29,broken clouds,0,0
24,New Norfolk,AU,2020-05-08 18:37:15,-42.78,147.06,48.99,80,100,1.23,light rain,0,0
25,Hefei,CN,2020-05-08 18:44:46,31.86,117.28,64.0,93,90,11.18,overcast clouds,0,0
26,Impfondo,CG,2020-05-08 18:44:46,1.64,18.07,73.65,89,100,2.1,overcast clouds,0,0
27,Punta Arenas,CL,2020-05-08 18:36:20,-53.15,-70.92,53.6,66,98,9.17,overcast clouds,0,0
28,Tual,ID,2020-05-08 18:44:46,-5.67,132.75,82.89,78,0,19.01,clear sky,0,0
29,Saint-Augustin,CA,2020-05-08 18:44:47,51.23,-58.65,35.02,98,100,3.0,overcast clouds,0,0
30,Kailua,US,2020-05-08 18:44:47,21.4,-157.74,78.8,54,20,13.87,few clouds,0,0
31,Vrangel,RU,2020-05-08 18:44:16,42.73,133.08,47.5,87,100,2.33,overcast clouds,0,0
32,Butaritari,KI,2020-05-08 18:36:31,3.07,172.79,82.42,75,100,3.49,overcast clouds,0,0
33,Carnarvon,AU,2020-05-08 18:36:46,-24.87,113.63,67.55,44,97,20.42,overcast clouds,0,0
34,Luderitz,NA,2020-05-08 18:37:17,-26.65,15.16,53.6,100,0,10.29,clear sky,0,0
35,Atuona,PF,2020-05-08 18:37:21,-9.8,-139.03,81.28,74,67,17.63,broken clouds,0,0
36,Half Moon Bay,US,2020-05-08 18:37:11,37.46,-122.43,80.01,82,1,5.82,haze,0,0
37,Chuy,UY,2020-05-08 18:41:15,-33.7,-53.46,62.78,51,0,7.29,clear sky,0,0
38,Aklavik,CA,2020-05-08 18:38:19,68.22,-135.01,39.2,55,5,10.29,clear sky,0,0
39,Rio Gallegos,AR,2020-05-08 18:40:52,-51.62,-69.22,57.2,62,90,3.36,overcast clouds,0,0
40,Avarua,CK,2020-05-08 18:37:14,-21.21,-159.78,78.8,83,15,4.7,few clouds,0,0
41,Castro,BR,2020-05-08 18:37:40,-24.79,-50.01,63.59,49,0,4.43,clear sky,0,0
42,Susaki,JP,2020-05-08 18:44:50,33.37,133.28,60.87,79,100,5.3,light rain,0,0
43,Port Alfred,ZA,2020-05-08 18:36:22,-33.59,26.89,64.99,96,8,1.01,clear sky,0,0
44,Cuamba,MZ,2020-05-08 18:44:51,-14.8,36.54,63.5,73,2,5.35,clear sky,0,0
45,Kavieng,PG,2020-05-08 18:37:51,-2.57,150.8,82.62,74,0,8.48,clear sky,0,0
46,Carbonia,IT,2020-05-08 18:44:52,39.17,8.52,69.8,73,20,13.87,few clouds,0,0
47,Ponta Do Sol,PT,2020-05-08 18:36:27,32.67,-17.1,69.8,68,20,13.87,few clouds,0,0
48,Puerto Narino,CO,2020-05-08 18:44:52,-3.77,-70.38,77.0,88,90,3.36,overcast clouds,0,0
49,Touros,BR,2020-05-08 18:38:38,-5.2,-35.46,84.2,74,75,11.41,broken clouds,0,0
50,Puerto Ayora,EC,2020-05-08 18:36:36,-0.74,-90.35,84.2,70,20,20.8,few clouds,0,0
51,Nikolskoye,RU,2020-05-08 18:37:44,59.7,30.79,51.01,39,0,4.47,clear sky,0,0
52,Airai,TL,2020-05-08 18:40:10,-8.93,125.41,55.99,84,0,3.13,clear sky,0,0
53,Salalah,OM,2020-05-08 18:37:47,17.02,54.09,84.2,89,20,3.36,few clouds,0,0
54,Iqaluit,CA,2020-05-08 18:33:27,63.75,-68.51,33.8,47,75,11.41,broken clouds,0,0
55,Geraldton,AU,2020-05-08 18:36:47,-28.77,114.6,50.0,81,0,5.82,clear sky,0,0
56,Kanina,CD,2020-05-08 18:44:56,-10.73,25.47,62.02,85,3,6.82,clear sky,0,0
57,Khatanga,RU,2020-05-08 18:37:31,71.97,102.5,19.85,93,100,19.82,overcast clouds,0,0
58,Kloulklubed,PW,2020-05-08 18:44:56,7.04,134.26,80.6,83,75,13.87,broken clouds,0,0
59,Rikitea,PF,2020-05-08 18:36:22,-23.12,-134.97,75.76,71,29,8.46,scattered clouds,0,0
60,Adamantina,BR,2020-05-08 18:44:58,-21.69,-51.07,71.33,51,0,6.4,clear sky,0,0
61,Hobart,AU,2020-05-08 18:37:32,-42.88,147.33,53.6,76,90,1.12,light rain,0,0
62,Gimbi,ET,2020-05-08 18:44:58,9.17,35.83,62.28,93,100,1.79,light rain,0,0
63,Bluff,NZ,2020-05-08 18:36:33,-46.6,168.33,50.95,78,61,13.0,broken clouds,0,0
64,Dauphin,CA,2020-05-08 18:42:05,51.15,-100.05,48.2,31,20,9.17,few clouds,0,0
65,Vaitape,PF,2020-05-08 18:41:15,-16.52,-151.75,82.94,76,100,14.12,overcast clouds,0,0
66,Provideniya,RU,2020-05-08 18:36:20,64.38,-173.3,36.09,80,100,17.72,overcast clouds,0,0
67,Bluefield,US,2020-05-08 18:44:59,37.27,-81.22,45.0,93,90,23.04,light rain,0,0
68,Havre-Saint-Pierre,CA,2020-05-08 18:38:43,50.23,-63.6,44.6,56,75,14.99,broken clouds,0,0
69,Agadir,MA,2020-05-08 18:43:18,30.42,-9.6,71.6,56,0,14.99,clear sky,0,0
70,Kruisfontein,ZA,2020-05-08 18:38:20,-34.0,24.73,58.15,97,0,2.84,clear sky,0,0
71,Port-Gentil,GA,2020-05-08 18:37:58,-0.72,8.78,78.8,94,75,12.75,thunderstorm with light rain,0,0
72,Lebu,CL,2020-05-08 18:37:32,-37.62,-73.65,61.99,77,100,15.3,overcast clouds,0,0
73,Esperance,AU,2020-05-08 18:36:15,-33.87,121.9,50.0,93,90,5.82,overcast clouds,0,0
74,Fortuna,US,2020-05-08 18:37:56,40.6,-124.16,60.01,82,1,9.17,clear sky,0,0
75,Vorotynsk,RU,2020-05-08 18:45:05,54.43,36.05,48.2,87,100,2.24,overcast clouds,0,0
76,Tura,IN,2020-05-08 18:41:21,25.52,90.22,74.52,41,0,3.47,clear sky,0,0
77,Kemi,FI,2020-05-08 18:45:06,65.86,24.82,37.4,47,85,1.12,overcast clouds,0,0
78,Port Elizabeth,ZA,2020-05-08 18:35:15,-33.92,25.57,60.8,100,0,4.7,light rain,0,0
79,Port Hardy,CA,2020-05-08 18:42:55,50.7,-127.42,53.6,66,20,4.7,few clouds,0,0
80,Jiuquan,CN,2020-05-08 18:40:20,39.74,98.52,52.32,35,0,7.45,clear sky,0,0
81,Kenai,US,2020-05-08 18:40:26,60.55,-151.26,53.6,46,1,14.99,clear sky,0,0
82,Hilo,US,2020-05-08 18:37:29,19.73,-155.09,75.2,64,90,4.54,overcast clouds,0,0
83,Cape Town,ZA,2020-05-08 18:34:50,-33.93,18.42,66.0,93,0,9.17,clear sky,0,0
84,Derbent,RU,2020-05-08 18:45:07,42.07,48.29,61.39,80,94,3.06,overcast clouds,0,0
85,Pacific Grove,US,2020-05-08 18:37:08,36.62,-121.92,84.99,60,1,6.93,clear sky,0,0
86,Saint-Pierre,RE,2020-05-08 18:36:31,-21.34,55.48,73.4,69,20,8.05,few clouds,0,0
87,Khandyga,RU,2020-05-08 18:45:08,62.67,135.6,34.21,95,100,5.35,overcast clouds,0,0
88,Jacareacanga,BR,2020-05-08 18:41:35,-6.22,-57.75,89.6,70,40,3.36,scattered clouds,0,0
89,Aguilas,ES,2020-05-08 18:45:08,37.41,-1.58,66.99,77,100,1.99,overcast clouds,0,0
90,Hithadhoo,MV,2020-05-08 18:36:35,-0.6,73.08,85.24,78,100,14.18,overcast clouds,0,0
91,Westerland,DE,2020-05-08 18:41:35,54.91,8.3,53.6,76,99,6.93,overcast clouds,0,0
92,Port Blair,IN,2020-05-08 18:34:44,11.67,92.75,84.02,76,100,3.78,overcast clouds,0,0
93,Tasiilaq,GL,2020-05-08 18:37:41,65.61,-37.64,34.39,80,0,0.2,clear sky,0,0
94,Thinadhoo,MV,2020-05-08 18:38:53,0.53,72.93,85.24,77,11,16.89,few clouds,0,0
95,Namatanai,PG,2020-05-08 18:42:48,-3.67,152.43,79.61,77,0,3.96,clear sky,0,0
96,Mahebourg,MU,2020-05-08 18:37:11,-20.41,57.7,73.4,94,20,4.7,few clouds,0,0
97,Sakakah,SA,2020-05-08 18:45:10,29.97,40.21,89.6,17,84,20.8,broken clouds,0,0
98,Bonthe,SL,2020-05-08 18:45:10,7.53,-12.51,82.69,83,49,9.01,scattered clouds,0,0
99,Jamestown,US,2020-05-08 18:33:10,42.1,-79.24,33.01,92,90,11.41,light snow,0,0
100,Vulcan,RO,2020-05-08 18:45:11,45.38,23.27,45.99,77,66,4.59,broken clouds,0,0
101,Mon,IN,2020-05-08 18:45:11,26.75,95.1,63.75,82,24,3.87,few clouds,0,0
102,Kamenka,RU,2020-05-08 18:41:38,51.32,42.77,55.0,73,100,4.92,overcast clouds,0,0
103,Platanos,GR,2020-05-08 18:45:11,37.67,21.62,64.4,72,0,4.7,clear sky,0,0
104,Lokosovo,RU,2020-05-08 18:45:12,61.13,74.82,62.73,50,100,10.89,overcast clouds,0,0
105,Taoudenni,ML,2020-05-08 18:39:19,22.68,-3.98,97.3,19,100,25.66,overcast clouds,0,0
106,Le Port,RE,2020-05-08 18:45:12,-20.94,55.29,73.4,78,20,5.82,few clouds,0,0
107,Ostrovnoy,RU,2020-05-08 18:37:16,68.05,39.51,33.62,92,98,8.08,overcast clouds,0,0
108,Khasan,RU,2020-05-08 18:45:14,42.43,130.64,52.65,79,100,3.6,overcast clouds,0,0
109,Fonte Boa,BR,2020-05-08 18:45:14,-2.5,-66.27,78.82,91,100,1.9,light rain,0,0
110,Mama,RU,2020-05-08 18:45:14,58.31,112.9,30.34,90,30,2.1,scattered clouds,0,0
111,La Ronge,CA,2020-05-08 18:41:17,55.1,-105.28,41.0,48,90,4.7,overcast clouds,0,0
112,Bandiagara,ML,2020-05-08 18:45:14,14.35,-3.61,107.6,17,20,4.7,few clouds,0,0
113,Hamilton,US,2020-05-08 18:37:14,39.18,-84.53,50.0,76,90,10.29,light rain,0,0
114,Kayerkan,RU,2020-05-08 18:45:15,69.35,87.76,35.6,93,75,20.13,broken clouds,0,0
115,Bull Savanna,JM,2020-05-08 18:45:18,17.89,-77.59,84.16,69,26,18.21,light rain,0,0
116,Barrow,US,2020-05-08 18:34:16,71.29,-156.79,21.07,98,97,11.81,overcast clouds,0,0
117,Faya,SA,2020-05-08 18:37:20,18.39,42.45,69.8,88,13,5.82,few clouds,0,0
118,Cabo San Lucas,MX,2020-05-08 18:38:37,22.89,-109.91,87.8,20,5,6.93,clear sky,0,0
119,Kamenskiy,RU,2020-05-08 18:45:18,50.89,45.49,56.37,87,100,8.16,overcast clouds,0,0
120,Aras,ES,2020-05-08 18:45:19,42.56,-2.36,73.4,46,17,2.24,light rain,0,0
121,Korla,CN,2020-05-08 18:36:45,41.76,86.15,61.79,29,5,3.56,clear sky,0,0
122,Makakilo City,US,2020-05-08 18:37:30,21.35,-158.09,75.2,68,1,8.05,clear sky,0,0
123,Victoria,HK,2020-05-08 18:35:08,22.29,114.16,82.0,83,36,7.0,scattered clouds,0,0
124,Tignere,CM,2020-05-08 18:45:22,7.37,12.65,68.99,76,20,0.31,few clouds,0,0
125,Upernavik,GL,2020-05-08 18:36:49,72.79,-56.15,22.03,86,97,5.73,overcast clouds,0,0
126,Padang,ID,2020-05-08 18:38:55,-0.95,100.35,79.45,74,100,4.09,overcast clouds,0,0
127,Grand Gaube,MU,2020-05-08 18:37:31,-20.01,57.66,73.0,81,2,1.01,clear sky,0,0
128,Henties Bay,NA,2020-05-08 18:40:37,-22.12,14.28,68.99,51,0,7.52,clear sky,0,0
129,Svetlaya,RU,2020-05-08 18:45:23,46.54,138.33,48.29,68,96,5.84,overcast clouds,0,0
130,Vardo,NO,2020-05-08 18:37:34,70.37,31.11,33.8,74,75,9.17,broken clouds,0,0
131,Siparia,TT,2020-05-08 18:45:24,10.13,-61.5,90.0,66,100,13.96,overcast clouds,0,0
132,Shingu,JP,2020-05-08 18:45:25,33.73,135.98,58.42,80,100,2.89,overcast clouds,0,0
133,Ancud,CL,2020-05-08 18:43:22,-41.87,-73.82,57.0,100,90,16.11,overcast clouds,0,0
134,Rio Do Sul,BR,2020-05-08 18:45:11,-27.21,-49.64,73.99,53,0,0.49,clear sky,0,0
135,Kashi,CN,2020-05-08 18:45:25,39.45,75.98,59.0,67,54,4.47,broken clouds,0,0
136,Naze,JP,2020-05-08 18:45:26,28.37,129.48,71.6,88,90,8.05,overcast clouds,0,0
137,Pisco,PE,2020-05-08 18:37:19,-13.7,-76.22,71.6,73,7,12.75,clear sky,0,0
138,Pangnirtung,CA,2020-05-08 18:40:08,66.15,-65.71,23.0,85,90,5.82,overcast clouds,0,0
139,Piacabucu,BR,2020-05-08 18:40:56,-10.41,-36.43,81.45,71,100,7.87,overcast clouds,0,0
140,Lorengau,PG,2020-05-08 18:40:51,-2.02,147.27,81.5,79,99,3.13,overcast clouds,0,0
141,Dekar,BW,2020-05-08 18:45:27,-21.53,21.93,63.14,30,0,6.17,clear sky,0,0
142,Senica,SK,2020-05-08 18:43:42,48.68,17.37,64.4,45,39,3.36,scattered clouds,0,0
143,Nizhniy Kuranakh,RU,2020-05-08 18:45:29,58.84,125.49,27.46,97,100,9.13,light snow,0,0
144,Ambunti,PG,2020-05-08 18:45:29,-4.24,142.84,73.45,98,48,0.47,scattered clouds,0,0
145,Tiksi,RU,2020-05-08 18:38:01,71.69,128.87,14.85,96,100,17.9,snow,0,0
146,Constitucion,CL,2020-05-08 18:37:42,-35.33,-72.42,64.29,63,100,6.38,overcast clouds,0,0
147,Chapleau,CA,2020-05-08 18:45:30,47.84,-83.4,24.8,49,75,9.17,light snow,0,0
148,Makat,KZ,2020-05-08 18:45:30,47.65,53.35,72.61,23,0,8.7,clear sky,0,0
149,Husavik,IS,2020-05-08 18:36:26,66.04,-17.34,37.4,55,75,13.87,broken clouds,0,0
150,Amga,RU,2020-05-08 18:45:30,60.9,131.96,30.6,97,96,3.06,overcast clouds,0,0
151,Lompoc,US,2020-05-08 18:40:38,34.64,-120.46,82.99,39,20,6.93,few clouds,0,0
152,Denpasar,ID,2020-05-08 18:45:31,-8.65,115.22,77.0,100,40,8.05,light rain,0,0
153,Ayan,RU,2020-05-08 18:38:39,56.45,138.17,30.06,99,100,8.03,light snow,0,0
154,Santa Rita,BR,2020-05-08 18:45:31,-7.11,-34.98,86.0,66,75,13.87,broken clouds,0,0
155,Yerbogachen,RU,2020-05-08 18:39:10,61.28,108.01,28.54,84,0,2.35,clear sky,0,0
156,Tuktoyaktuk,CA,2020-05-08 18:36:45,69.45,-133.04,21.2,79,5,16.11,clear sky,0,0
157,Kalamnuri,IN,2020-05-08 18:45:32,19.67,77.33,86.36,34,0,6.31,clear sky,0,0
158,Rawson,AR,2020-05-08 18:40:43,-43.3,-65.1,77.67,25,100,14.65,overcast clouds,0,0
159,Coquimbo,CL,2020-05-08 18:37:48,-29.95,-71.34,60.8,72,40,10.29,scattered clouds,0,0
160,Souillac,MU,2020-05-08 18:37:17,-20.52,57.52,73.4,94,20,4.7,few clouds,0,0
161,Chibuto,MZ,2020-05-08 18:45:33,-24.69,33.53,64.65,78,0,4.83,clear sky,0,0
162,Cervo,ES,2020-05-08 18:45:33,43.67,-7.41,60.01,1,100,4.76,moderate rain,0,0
163,Atikokan,CA,2020-05-08 18:45:33,48.76,-91.62,41.97,49,100,11.86,overcast clouds,0,0
164,Kudahuvadhoo,MV,2020-05-08 18:41:11,2.67,72.89,85.51,76,100,13.65,overcast clouds,0,0
165,Vicuna,CL,2020-05-08 18:45:34,-30.03,-70.71,60.8,72,40,10.29,scattered clouds,0,0
166,Longyearbyen,SJ,2020-05-08 18:36:36,78.22,15.64,26.6,73,75,6.93,light snow,0,0
167,Kondinskoye,RU,2020-05-08 18:45:34,59.65,67.41,60.69,49,98,10.31,overcast clouds,0,0
168,Dongsheng,CN,2020-05-08 18:42:35,39.82,109.98,50.9,44,100,8.99,overcast clouds,0,0
169,Namibe,AO,2020-05-08 18:37:32,-15.2,12.15,82.81,47,0,5.93,clear sky,0,0
170,Alice Springs,AU,2020-05-08 18:43:19,-23.7,133.88,59.0,30,0,6.93,clear sky,0,0
171,Thompson,CA,2020-05-08 18:33:29,55.74,-97.86,30.2,68,75,9.17,broken clouds,0,0
172,Auki,SB,2020-05-08 18:37:18,-8.77,160.7,78.67,86,25,3.18,light rain,0,0
173,Marawi,PH,2020-05-08 18:37:51,8.0,124.29,80.01,83,46,3.0,scattered clouds,0,0
174,Bredasdorp,ZA,2020-05-08 18:36:34,-34.53,20.04,64.4,88,9,3.36,clear sky,0,0
175,Deputatskiy,RU,2020-05-08 18:38:46,69.3,139.9,23.9,99,100,3.65,overcast clouds,0,0
176,Tuatapere,NZ,2020-05-08 18:37:58,-46.13,167.68,48.45,85,37,6.71,scattered clouds,0,0
177,Nabire,ID,2020-05-08 18:36:37,-3.37,135.48,78.28,88,100,3.18,overcast clouds,0,0
178,Sangar,RU,2020-05-08 18:37:17,63.92,127.47,28.51,98,99,2.89,overcast clouds,0,0
179,Gat,IL,2020-05-08 18:36:05,31.61,34.76,72.0,63,0,10.92,clear sky,0,0
180,Huilong,CN,2020-05-08 18:45:38,31.81,121.66,73.0,95,96,12.17,overcast clouds,0,0
181,Lagos,NG,2020-05-08 18:45:38,6.58,3.75,86.0,79,40,4.7,scattered clouds,0,0
182,Vershino-Darasunskiy,RU,2020-05-08 18:45:39,52.35,115.52,37.85,76,100,3.6,overcast clouds,0,0
183,Najran,SA,2020-05-08 18:45:39,17.49,44.13,86.0,30,20,6.6,few clouds,0,0
184,College,US,2020-05-08 18:40:24,64.86,-147.8,59.0,33,90,11.41,overcast clouds,0,0
185,Nybro,SE,2020-05-08 18:41:55,56.74,15.91,57.2,54,0,12.75,clear sky,0,0
186,Obo,CF,2020-05-08 18:45:39,5.4,26.49,71.89,93,100,2.35,overcast clouds,0,0
187,Camana,PE,2020-05-08 18:45:40,-16.62,-72.71,71.4,68,63,7.05,broken clouds,0,0
188,Olafsvik,IS,2020-05-08 18:39:34,64.89,-23.71,38.64,68,0,9.86,clear sky,0,0
189,Tortoli,IT,2020-05-08 18:45:43,39.93,9.66,68.0,77,40,9.17,scattered clouds,0,0
190,Chokurdakh,RU,2020-05-08 18:37:24,70.63,147.92,18.45,97,49,8.01,scattered clouds,0,0
191,Maraa,BR,2020-05-08 18:45:43,-1.83,-65.37,75.51,98,100,2.13,moderate rain,0,0
192,Ilulissat,GL,2020-05-08 18:39:03,69.22,-51.1,33.85,83,65,7.2,broken clouds,0,0
193,Lavrentiya,RU,2020-05-08 18:37:31,65.58,-171.0,33.42,90,100,12.86,overcast clouds,0,0
194,Mana,GF,2020-05-08 18:38:47,5.66,-53.78,81.68,72,63,12.28,broken clouds,0,0
195,Karpogory,RU,2020-05-08 18:45:46,64.0,44.45,39.87,91,54,4.7,light rain,0,0
196,Duku,NG,2020-05-08 18:45:46,11.24,4.91,97.02,28,31,4.81,scattered clouds,0,0
197,Roma,US,2020-05-08 18:42:05,43.21,-75.46,46.4,45,90,12.75,overcast clouds,0,0
198,Narsaq,GL,2020-05-08 18:36:22,60.92,-46.05,55.4,47,75,6.93,broken clouds,0,0
199,Sao Joao Da Barra,BR,2020-05-08 18:36:58,-21.64,-41.05,77.0,53,20,11.41,few clouds,0,0
200,Srednekolymsk,RU,2020-05-08 18:40:58,67.45,153.68,27.0,96,0,6.93,clear sky,0,0
201,Seminole,US,2020-05-08 18:41:19,28.71,-81.21,84.99,28,1,13.87,clear sky,0,0
202,Sobolevo,RU,2020-05-08 18:40:28,54.43,31.9,43.39,71,22,5.61,few clouds,0,0
203,Georgetown,MY,2020-05-08 18:36:11,5.41,100.34,78.8,94,40,4.7,light rain,0,0
204,Talnakh,RU,2020-05-08 18:37:40,69.49,88.4,35.6,93,75,20.13,broken clouds,0,0
205,Tarrafal,CV,2020-05-08 18:45:49,15.28,-23.77,77.0,61,40,21.92,scattered clouds,0,0
206,Vao,NC,2020-05-08 18:44:10,-22.67,167.48,73.13,78,41,23.24,light rain,0,0
207,Sao Gabriel Da Cachoeira,BR,2020-05-08 18:45:50,-0.13,-67.09,78.8,94,75,2.24,broken clouds,0,0
208,Ewa Beach,US,2020-05-08 18:44:58,21.32,-158.01,75.2,60,20,10.29,few clouds,0,0
209,Marathon,US,2020-05-08 18:45:52,44.9,-89.77,39.0,29,40,12.75,scattered clouds,0,0
210,Isangel,VU,2020-05-08 18:45:55,-19.55,169.27,71.6,94,20,19.89,few clouds,0,0
211,Raduzhnyy,RU,2020-05-08 18:46:16,62.1,77.47,60.87,56,100,10.78,overcast clouds,0,0
212,Guerrero Negro,MX,2020-05-08 18:42:41,27.98,-114.06,80.91,35,0,7.61,clear sky,0,0
213,Usevya,TZ,2020-05-08 18:46:16,-7.1,31.23,67.37,82,0,3.15,clear sky,0,0
214,Bethel,US,2020-05-08 18:32:23,41.37,-73.41,50.0,49,90,11.41,light rain,0,0
215,Matoury,GF,2020-05-08 18:46:17,4.85,-52.33,86.0,66,75,13.87,broken clouds,0,0
216,Sukhobuzimskoye,RU,2020-05-08 18:46:17,56.5,93.27,32.0,70,81,2.55,broken clouds,0,0
217,Santa Maria,BR,2020-05-08 18:39:10,-29.68,-53.81,67.5,49,0,1.3,clear sky,0,0
218,Samarai,PG,2020-05-08 18:37:52,-10.62,150.67,79.39,82,100,16.08,light rain,0,0
219,Port Keats,AU,2020-05-08 18:46:18,-14.25,129.55,71.91,64,4,4.61,clear sky,0,0
220,Severo-Kurilsk,RU,2020-05-08 18:37:16,50.68,156.12,33.13,92,55,13.51,broken clouds,0,0
221,Lengshuijiang,CN,2020-05-08 18:46:20,27.69,111.43,67.75,82,100,1.9,overcast clouds,0,0
222,Shelburne,CA,2020-05-08 18:42:06,44.08,-80.2,39.0,40,20,18.34,few clouds,0,0
223,Qaanaaq,GL,2020-05-08 18:36:36,77.48,-69.36,16.93,88,78,3.18,broken clouds,0,0
224,Baiyin,CN,2020-05-08 18:46:20,36.56,104.21,48.0,86,40,6.71,scattered clouds,0,0
225,Pochutla,MX,2020-05-08 18:37:29,15.74,-96.47,96.01,41,40,11.41,scattered clouds,0,0
226,Acapulco,MX,2020-05-08 18:43:09,16.86,-99.89,86.0,70,20,8.05,haze,0,0
227,Manicore,BR,2020-05-08 18:46:21,-5.81,-61.3,80.6,83,75,3.36,broken clouds,0,0
228,Ilave,PE,2020-05-08 18:46:21,-16.08,-69.67,57.67,38,0,10.22,clear sky,0,0
229,Richards Bay,ZA,2020-05-08 18:38:33,-28.78,32.04,67.69,84,19,6.96,few clouds,0,0
230,Arona,ES,2020-05-08 18:46:23,28.1,-16.68,69.8,68,75,6.93,broken clouds,0,0
231,Arraial Do Cabo,BR,2020-05-08 18:36:47,-22.97,-42.03,77.0,69,75,9.17,broken clouds,0,0
232,Nashville,US,2020-05-08 18:45:10,36.17,-86.78,55.4,87,90,8.05,moderate rain,0,0
233,Bridgeton,US,2020-05-08 18:46:23,39.43,-75.23,60.8,51,90,12.75,overcast clouds,0,0
234,Bubaque,GW,2020-05-08 18:41:20,11.28,-15.83,79.54,77,61,15.03,broken clouds,0,0
235,Shimoda,JP,2020-05-08 18:46:26,34.67,138.95,59.18,67,100,5.88,overcast clouds,0,0
236,Tucuman,AR,2020-05-08 18:41:58,-26.82,-65.22,71.6,49,0,4.7,clear sky,0,0
237,Petropavlovsk-Kamchatskiy,RU,2020-05-08 18:46:26,53.05,158.65,33.8,74,86,6.71,overcast clouds,0,0
238,Porvoo,FI,2020-05-08 18:46:26,60.39,25.67,46.0,63,100,8.59,overcast clouds,0,0
239,Norman Wells,CA,2020-05-08 18:37:49,65.28,-126.83,39.2,60,5,12.75,clear sky,0,0
240,Loreto,MX,2020-05-08 18:46:27,22.27,-101.97,71.13,41,99,8.55,overcast clouds,0,0
241,Bilma,NE,2020-05-08 18:46:28,18.69,12.92,87.55,12,0,5.19,clear sky,0,0
242,Samandag,TR,2020-05-08 18:46:28,36.08,35.98,71.6,53,75,6.93,broken clouds,0,0
243,Moron,AR,2020-05-08 18:43:18,-34.65,-58.62,66.99,45,41,11.41,scattered clouds,0,0
244,Vanavara,RU,2020-05-08 18:37:58,60.34,102.28,34.54,86,59,2.51,broken clouds,0,0
245,Glazunovka,RU,2020-05-08 18:46:29,52.5,36.33,47.55,91,95,3.09,light rain,0,0
246,Garowe,SO,2020-05-08 18:41:46,8.41,48.48,83.32,62,0,12.5,clear sky,0,0
247,Meadow Lake,US,2020-05-08 18:41:47,34.8,-106.54,68.0,15,1,20.8,clear sky,0,0
248,Sunrise Manor,US,2020-05-08 18:46:30,36.21,-115.07,84.2,6,1,12.75,clear sky,0,0
249,Mersing,MY,2020-05-08 18:46:30,2.43,103.84,80.6,94,90,4.7,overcast clouds,0,0
250,Zabol,AF,2020-05-08 18:46:30,32.25,67.25,70.47,22,0,10.54,clear sky,0,0
251,Payo,ID,2020-05-08 18:46:30,-3.75,103.64,74.35,95,100,1.81,light rain,0,0
252,Asau,RO,2020-05-08 18:38:28,46.43,26.4,51.01,66,65,0.81,broken clouds,0,0
253,Hofn,IS,2020-05-08 18:46:34,64.25,-15.21,41.0,41,40,17.22,scattered clouds,0,0
254,Ngama,TD,2020-05-08 18:46:34,11.78,17.17,97.59,25,15,8.5,few clouds,0,0
255,Hasaki,JP,2020-05-08 18:37:59,35.73,140.83,57.0,76,100,8.05,overcast clouds,0,0
256,Lagoa,PT,2020-05-08 18:39:34,39.05,-27.98,60.73,73,77,25.39,broken clouds,0,0
257,Semnan,IR,2020-05-08 18:46:47,35.57,53.4,69.4,43,0,7.94,clear sky,0,0
258,Weston,US,2020-05-08 18:42:31,26.1,-80.4,86.0,42,40,9.17,scattered clouds,0,0
259,Chai Badan,TH,2020-05-08 18:47:14,15.2,101.13,87.01,75,100,9.04,overcast clouds,0,0
260,Oranjemund,NA,2020-05-08 18:38:58,-28.55,16.43,61.02,74,0,6.38,clear sky,0,0
261,Poum,NC,2020-05-08 18:42:04,-20.23,164.02,73.53,73,0,10.87,clear sky,0,0
262,Palauig,PH,2020-05-08 18:47:15,15.44,119.9,83.55,74,95,4.97,overcast clouds,0,0
263,Kushima,JP,2020-05-08 18:40:52,31.46,131.23,64.0,67,100,15.99,light rain,0,0
264,Amahai,ID,2020-05-08 18:41:34,-3.33,128.92,81.0,97,13,3.94,few clouds,0,0
265,Trat,TH,2020-05-08 18:47:20,12.5,102.5,79.3,92,100,1.48,overcast clouds,0,0
266,Saskylakh,RU,2020-05-08 18:47:21,71.92,114.08,-2.34,92,71,2.08,broken clouds,0,0
267,Takoradi,GH,2020-05-08 18:47:21,4.88,-1.76,82.38,82,100,9.53,overcast clouds,0,0
268,Maningrida,AU,2020-05-08 18:47:21,-12.07,134.27,70.88,91,98,7.67,overcast clouds,0,0
269,Mangaratiba,BR,2020-05-08 18:47:22,-22.96,-44.04,69.44,68,7,5.03,clear sky,0,0
270,Villazon,BO,2020-05-08 18:47:22,-22.09,-65.59,62.82,28,0,8.32,clear sky,0,0
271,Kalmunai,LK,2020-05-08 18:47:22,7.42,81.82,81.84,78,14,3.33,few clouds,0,0
272,Hit,IQ,2020-05-08 18:47:22,33.64,42.83,82.8,21,0,18.25,clear sky,0,0
273,Santa Isabel Do Rio Negro,BR,2020-05-08 18:47:23,-0.41,-65.02,74.57,98,100,2.24,light rain,0,0
274,Praia,CV,2020-05-08 18:43:06,14.92,-23.51,77.0,61,40,21.92,scattered clouds,0,0
275,Mehamn,NO,2020-05-08 18:47:23,71.04,27.85,35.6,59,40,14.99,scattered clouds,0,0
276,Faanui,PF,2020-05-08 18:38:22,-16.48,-151.75,82.09,78,100,14.2,overcast clouds,0,0
277,Boa Vista,BR,2020-05-08 18:47:24,2.82,-60.67,86.0,66,75,8.05,broken clouds,0,0
278,Sasvad,IN,2020-05-08 18:47:24,18.33,74.03,74.79,70,7,6.85,clear sky,0,0
279,Burnie,AU,2020-05-08 18:47:24,-41.07,145.92,59.0,84,100,18.01,overcast clouds,0,0
280,Batemans Bay,AU,2020-05-08 18:47:25,-35.72,150.18,57.99,81,79,5.7,broken clouds,0,0
281,Mount Gambier,AU,2020-05-08 18:38:56,-37.83,140.77,50.0,100,75,8.05,broken clouds,0,0
282,Springdale,US,2020-05-08 18:43:04,36.19,-94.13,60.8,62,75,18.34,broken clouds,0,0
283,Miyako,JP,2020-05-08 18:47:26,39.64,141.95,53.2,60,100,5.21,overcast clouds,0,0
284,Nha Trang,VN,2020-05-08 18:47:26,12.25,109.18,86.0,89,20,6.93,few clouds,0,0
285,Alekseyevsk,RU,2020-05-08 18:47:27,57.84,108.35,31.24,82,0,1.81,clear sky,0,0
286,Bandarbeyla,SO,2020-05-08 18:39:20,9.49,50.81,83.28,72,0,10.13,clear sky,0,0
287,Antalaha,MG,2020-05-08 18:47:27,-14.9,50.28,74.64,83,2,7.76,clear sky,0,0
288,Bengkulu,ID,2020-05-08 18:37:30,-3.8,102.27,77.52,83,100,4.43,overcast clouds,0,0
289,Mbarara,UG,2020-05-08 18:44:44,-0.61,30.65,64.54,94,70,3.44,moderate rain,0,0
290,Ribeira Grande,PT,2020-05-08 18:38:42,38.52,-28.7,62.6,72,40,18.34,scattered clouds,0,0
291,Mogadishu,SO,2020-05-08 18:47:32,2.04,45.34,82.85,80,89,12.53,light rain,0,0
292,Kupang,ID,2020-05-08 18:42:56,-10.17,123.58,76.95,78,69,9.91,broken clouds,0,0
293,Codrington,AU,2020-05-08 18:38:54,-38.27,141.97,51.28,86,100,10.98,light rain,0,0
294,Gorur,IN,2020-05-08 18:47:33,12.82,76.07,77.59,76,100,5.93,light rain,0,0
295,The Valley,AI,2020-05-08 18:44:49,18.22,-63.06,87.8,66,40,14.99,haze,0,0
296,Boyolangu,ID,2020-05-08 18:47:35,-8.12,111.89,77.07,89,100,1.41,overcast clouds,0,0
297,Bambanglipuro,ID,2020-05-08 18:47:36,-7.95,110.28,77.83,89,98,4.68,light rain,0,0
298,Damaturu,NG,2020-05-08 18:47:36,11.75,11.96,94.75,21,73,6.62,broken clouds,0,0
299,Verkhnyaya Maksakovka,RU,2020-05-08 18:47:36,61.63,50.97,50.0,93,75,6.71,broken clouds,0,0
300,Cap Malheureux,MU,2020-05-08 18:41:34,-19.98,57.61,73.0,82,3,8.59,clear sky,0,0
301,Ambon,ID,2020-05-08 18:38:44,-3.7,128.18,81.0,97,0,10.4,clear sky,0,0
302,Clarksburg,US,2020-05-08 18:47:38,39.28,-80.34,51.8,81,90,17.22,moderate rain,0,0
303,Ruidoso,US,2020-05-08 18:47:38,33.33,-105.67,57.0,25,1,16.11,clear sky,0,0
304,Flinders,AU,2020-05-08 18:37:51,-34.58,150.86,71.01,71,0,5.01,clear sky,0,0
305,Aranos,NA,2020-05-08 18:47:38,-24.13,19.12,68.43,24,17,9.1,few clouds,0,0
306,Hami,CN,2020-05-08 18:47:38,42.8,93.45,59.02,27,0,4.05,clear sky,0,0
307,Ovalle,CL,2020-05-08 18:47:39,-30.6,-71.2,81.64,31,42,6.96,scattered clouds,0,0
308,Ayolas,PY,2020-05-08 18:47:39,-27.4,-56.9,70.84,31,0,2.42,clear sky,0,0
309,Taguatinga,BR,2020-05-08 18:47:39,-12.39,-46.57,81.63,74,100,5.77,light rain,0,0
310,Synya,RU,2020-05-08 18:47:39,65.37,58.04,37.4,91,100,5.57,overcast clouds,0,0
311,Catamarca,AR,2020-05-08 18:47:40,-28.47,-65.79,77.0,55,0,1.01,clear sky,0,0
312,Teknaf,BD,2020-05-08 18:47:40,20.86,92.31,77.54,83,0,4.7,clear sky,0,0
313,Kearney,US,2020-05-08 18:43:49,40.7,-99.08,53.6,37,1,16.11,clear sky,0,0
314,Lata,PT,2020-05-08 18:41:58,40.16,-8.33,64.0,75,66,1.99,broken clouds,0,0
315,Haines Junction,CA,2020-05-08 18:47:43,60.75,-137.51,52.77,41,90,2.46,overcast clouds,0,0
316,Aykhal,RU,2020-05-08 18:41:48,66.0,111.5,15.8,61,80,6.71,broken clouds,0,0
317,Leningradskiy,RU,2020-05-08 18:36:39,69.38,178.42,28.42,91,25,5.44,scattered clouds,0,0
318,Sambava,MG,2020-05-08 18:47:44,-14.27,50.17,76.53,84,11,10.85,few clouds,0,0
319,Zabaykalsk,RU,2020-05-08 18:47:44,49.63,117.32,46.24,50,5,4.23,clear sky,0,0
320,Kem,RU,2020-05-08 18:47:44,64.96,34.58,39.33,73,89,6.51,overcast clouds,0,0
321,Felanitx,ES,2020-05-08 18:47:44,39.47,3.15,69.8,73,20,12.75,few clouds,0,0
322,Greenfield,US,2020-05-08 18:47:45,42.96,-88.01,44.01,48,40,19.46,scattered clouds,0,0
323,Kodiak,US,2020-05-08 18:47:45,57.79,-152.41,44.6,87,90,16.11,light rain,0,0
324,Tashtagol,RU,2020-05-08 18:47:45,52.77,87.89,43.39,64,0,5.48,clear sky,0,0
325,Lahij,YE,2020-05-08 18:47:45,13.17,44.58,83.64,59,97,5.77,overcast clouds,0,0
326,Saint George,US,2020-05-08 18:38:54,37.1,-113.58,79.0,10,0,1.14,clear sky,0,0
327,Dzhebariki-Khaya,RU,2020-05-08 18:47:49,62.22,135.8,33.69,92,100,4.16,overcast clouds,0,0
328,Bonnyville,CA,2020-05-08 18:47:49,54.27,-110.73,46.4,61,75,14.99,broken clouds,0,0
329,Syamzha,RU,2020-05-08 18:47:50,60.02,41.06,39.36,96,2,2.84,clear sky,0,0
330,Bambous Virieux,MU,2020-05-08 18:47:50,-20.34,57.76,73.4,94,20,4.7,few clouds,0,0
331,Tupanatinga,BR,2020-05-08 18:47:50,-8.75,-37.34,78.37,63,100,12.28,overcast clouds,0,0
332,Jiaocheng,CN,2020-05-08 18:47:50,24.68,116.14,75.7,88,23,2.06,few clouds,0,0
333,Valentin Gomez Farias,MX,2020-05-08 18:39:45,28.22,-106.58,75.99,37,89,8.99,overcast clouds,0,0
334,Nacozari,MX,2020-05-08 18:47:51,25.34,-108.26,93.0,35,2,11.01,clear sky,0,0
335,Santa Isabel,BR,2020-05-08 18:47:51,-23.32,-46.22,69.8,52,7,4.7,clear sky,0,0
336,Alofi,NU,2020-05-08 18:47:51,-19.06,-169.92,69.8,100,99,3.36,overcast clouds,0,0
337,Zaysan,KZ,2020-05-08 18:47:51,47.47,84.87,56.91,36,0,5.39,clear sky,0,0
338,Vanimo,PG,2020-05-08 18:47:52,-2.67,141.3,78.76,83,100,2.8,overcast clouds,0,0
339,Lasa,IT,2020-05-08 18:47:52,46.62,10.7,73.4,38,100,9.17,overcast clouds,0,0
340,Nome,US,2020-05-08 18:47:52,64.5,-165.41,50.0,43,1,16.11,clear sky,0,0
341,Praia Da Vitoria,PT,2020-05-08 18:47:52,38.73,-27.07,68.0,56,40,20.87,scattered clouds,0,0
342,Berbera,SO,2020-05-08 18:47:53,10.44,45.01,89.42,65,40,11.72,scattered clouds,0,0
343,Greenville,US,2020-05-08 18:45:20,35.61,-77.37,71.6,28,1,17.22,clear sky,0,0
344,Mirabad,AF,2020-05-08 18:47:53,30.44,61.84,89.49,13,0,12.35,clear sky,0,0
345,Pathein,MM,2020-05-08 18:47:53,16.78,94.73,81.64,79,5,6.73,clear sky,0,0
346,Zharkent,KZ,2020-05-08 18:47:54,44.16,80.0,68.32,26,100,11.34,overcast clouds,0,0
347,Darnah,LY,2020-05-08 18:43:06,32.77,22.64,63.19,68,0,21.05,clear sky,0,0
348,Paita,PE,2020-05-08 18:47:55,-5.09,-81.11,86.0,48,79,13.87,broken clouds,0,0
349,Kahului,US,2020-05-08 18:40:37,20.89,-156.47,69.8,88,75,12.75,moderate rain,0,0
350,Ayagoz,KZ,2020-05-08 18:39:40,47.97,80.44,53.74,64,0,11.25,clear sky,0,0
351,Martapura,ID,2020-05-08 18:47:56,-3.42,114.85,77.0,100,99,1.12,overcast clouds,0,0
352,Avera,US,2020-05-08 18:39:46,33.19,-82.53,69.8,60,40,10.29,scattered clouds,0,0
353,Fort Wellington,GY,2020-05-08 18:47:56,6.4,-57.6,84.02,67,97,11.16,overcast clouds,0,0
354,Torbay,CA,2020-05-08 18:35:14,47.67,-52.73,43.0,86,75,27.51,broken clouds,0,0
355,San Cristobal,VE,2020-05-08 18:47:57,7.77,-72.22,86.0,55,40,32.21,scattered clouds,0,0
356,Ca Mau,VN,2020-05-08 18:47:57,9.18,105.15,81.81,82,100,3.2,overcast clouds,0,0
357,Sao Filipe,CV,2020-05-08 18:38:18,14.9,-24.5,75.88,69,1,11.12,clear sky,0,0
358,Clyde River,CA,2020-05-08 18:47:59,70.47,-68.59,19.4,85,75,20.8,broken clouds,0,0
359,Klaksvik,FO,2020-05-08 18:47:59,62.23,-6.59,41.0,56,1,14.99,clear sky,0,0
360,Esso,RU,2020-05-08 18:48:00,55.93,158.7,22.87,90,100,4.0,overcast clouds,0,0
361,Laguna,US,2020-05-08 18:43:58,38.42,-121.42,82.4,28,1,3.36,clear sky,0,0
362,Kropotkin,RU,2020-05-08 18:42:46,45.44,40.58,50.99,78,90,11.92,overcast clouds,0,0
363,San Jose,US,2020-05-08 18:38:38,37.34,-121.89,86.0,20,58,5.01,broken clouds,0,0
364,Quatre Cocos,MU,2020-05-08 18:48:01,-20.21,57.76,73.4,94,20,4.7,few clouds,0,0
365,Lincoln,US,2020-05-08 18:47:26,40.8,-96.67,55.0,34,1,10.29,clear sky,0,0
366,Kamaishi,JP,2020-05-08 18:48:02,39.27,141.88,53.6,64,100,7.49,overcast clouds,0,0
367,Tabou,CI,2020-05-08 18:48:02,4.42,-7.35,82.2,80,60,8.39,broken clouds,0,0
368,Dunedin,NZ,2020-05-08 18:40:09,-45.87,170.5,51.01,86,0,1.99,clear sky,0,0
369,Bansi,IN,2020-05-08 18:48:03,27.18,82.93,85.78,25,0,5.64,clear sky,0,0
370,Flin Flon,CA,2020-05-08 18:48:04,54.77,-101.86,42.8,35,75,11.41,broken clouds,0,0
371,Hof,DE,2020-05-08 18:48:04,50.32,11.92,64.4,39,100,9.17,overcast clouds,0,0
372,Cayenne,GF,2020-05-08 18:39:02,4.93,-52.33,86.0,66,75,13.87,broken clouds,0,0
373,Azare,NG,2020-05-08 18:48:04,11.68,10.19,91.94,28,24,12.26,few clouds,0,0
374,Lukow,PL,2020-05-08 18:48:04,51.93,22.38,57.99,42,9,2.84,clear sky,0,0
375,Polunochnoye,RU,2020-05-08 18:48:05,60.87,60.42,57.94,68,100,6.2,overcast clouds,0,0
376,Kanigoro,ID,2020-05-08 18:48:05,-8.13,112.22,75.27,92,100,1.61,overcast clouds,0,0
377,Dingle,PH,2020-05-08 18:48:05,11.0,122.67,78.82,81,87,5.77,overcast clouds,0,0
378,Ahipara,NZ,2020-05-08 18:48:08,-35.17,173.17,54.97,84,60,5.84,broken clouds,0,0
379,Bako,ET,2020-05-08 18:48:08,5.78,36.57,64.18,97,100,3.69,moderate rain,0,0
380,Vila Do Maio,CV,2020-05-08 18:38:18,15.13,-23.22,77.0,61,40,21.92,scattered clouds,0,0
381,Cap-Aux-Meules,CA,2020-05-08 18:48:08,47.38,-61.86,50.0,46,20,13.87,few clouds,0,0
382,Puerto Escondido,MX,2020-05-08 18:38:35,15.85,-97.07,86.0,70,5,6.93,clear sky,0,0
383,Nanortalik,GL,2020-05-08 18:38:34,60.14,-45.24,40.95,74,79,5.32,broken clouds,0,0
384,Hohhot,CN,2020-05-08 18:48:09,40.81,111.65,51.8,81,20,2.24,few clouds,0,0
385,Altamira,BR,2020-05-08 18:47:18,-3.2,-52.21,87.8,70,40,4.7,scattered clouds,0,0
386,Vila Franca Do Campo,PT,2020-05-08 18:48:09,37.72,-25.43,62.6,67,40,17.22,scattered clouds,0,0
387,Tiarei,PF,2020-05-08 18:48:10,-17.53,-149.33,84.0,78,9,2.24,clear sky,0,0
388,Christiansburg,US,2020-05-08 18:48:31,37.13,-80.41,52.0,93,90,4.7,moderate rain,0,0
389,Mayaky,UA,2020-05-08 18:48:31,47.44,29.56,47.39,76,80,5.86,broken clouds,0,0
390,Canberra,AU,2020-05-08 18:46:16,-35.28,149.13,52.0,100,75,3.36,light intensity shower rain,0,0
391,Ketchikan,US,2020-05-08 18:48:32,55.34,-131.65,53.6,66,1,13.87,clear sky,0,0
392,Tricase,IT,2020-05-08 18:48:32,39.93,18.36,66.2,48,5,2.24,clear sky,0,0
393,Saint-Louis,SN,2020-05-08 18:40:25,16.33,-15.0,103.69,8,0,15.5,clear sky,0,0
394,Miraflores,MX,2020-05-08 18:48:32,19.22,-98.81,71.6,35,40,3.36,scattered clouds,0,0
395,Forestville,US,2020-05-08 18:42:58,38.85,-76.88,64.99,45,40,23.04,light rain,0,0
396,Jalu,LY,2020-05-08 18:48:34,29.03,21.55,75.43,19,0,13.31,clear sky,0,0
397,Gushikawa,JP,2020-05-08 18:39:43,26.35,127.87,73.4,100,75,9.17,broken clouds,0,0
398,Valle De Allende,MX,2020-05-08 18:48:34,26.93,-105.4,80.64,24,61,14.0,broken clouds,0,0
399,Mallaig,CA,2020-05-08 18:48:36,54.22,-111.37,52.66,44,0,13.29,clear sky,0,0
400,Berlevag,NO,2020-05-08 18:40:02,70.86,29.09,35.6,59,40,14.99,scattered clouds,0,0
401,Beringovskiy,RU,2020-05-08 18:48:36,63.05,179.32,31.53,99,100,8.41,light snow,0,0
402,Maragogi,BR,2020-05-08 18:42:37,-9.01,-35.22,81.25,74,100,7.0,overcast clouds,0,0
403,Marsa Matruh,EG,2020-05-08 18:40:45,31.35,27.25,65.16,64,0,21.56,clear sky,0,0
404,Moerai,PF,2020-05-08 18:40:16,-22.43,-151.33,78.01,73,100,11.74,overcast clouds,0,0
405,Revelstoke,CA,2020-05-08 18:46:46,50.98,-118.2,57.2,54,1,2.24,clear sky,0,0
406,Lipari,IT,2020-05-08 18:48:41,38.47,14.95,66.99,75,72,1.01,broken clouds,0,0
407,Kichera,RU,2020-05-08 18:48:41,55.94,110.1,31.93,90,0,5.95,clear sky,0,0
408,Mithi,PK,2020-05-08 18:48:42,24.73,69.8,82.47,69,0,17.02,clear sky,0,0
409,Nieuw Amsterdam,SR,2020-05-08 18:48:42,5.88,-55.08,88.0,62,40,16.11,scattered clouds,0,0
410,Astana,KZ,2020-05-08 18:43:54,51.18,71.45,64.0,54,0,13.42,clear sky,0,0
411,Iwanai,JP,2020-05-08 18:48:42,42.97,140.51,48.72,52,100,5.12,overcast clouds,0,0
412,Lazaro Cardenas,MX,2020-05-08 18:48:42,17.96,-102.2,87.42,48,94,11.7,overcast clouds,0,0
413,Ola,RU,2020-05-08 18:41:16,59.58,151.28,32.99,92,78,1.74,broken clouds,0,0
414,San Patricio,MX,2020-05-08 18:48:43,19.22,-104.7,80.6,74,20,11.41,haze,0,0
415,Portland,US,2020-05-08 18:47:34,45.52,-122.68,75.99,25,1,25.28,clear sky,0,0
416,Maarianhamina,AX,2020-05-08 18:48:43,60.1,19.93,44.6,87,30,5.82,scattered clouds,0,0
417,Kurilsk,RU,2020-05-08 18:48:44,45.23,147.88,43.07,64,100,14.18,overcast clouds,0,0
418,Slavutych,UA,2020-05-08 18:44:48,51.52,30.73,43.95,73,0,5.26,clear sky,0,0
419,Verkhnevilyuysk,RU,2020-05-08 18:48:48,63.45,120.32,23.68,92,100,7.92,overcast clouds,0,0
420,Lulea,SE,2020-05-08 18:48:48,65.58,22.15,37.4,64,100,3.36,light snow,0,0
421,Bam,IR,2020-05-08 18:48:48,29.11,58.36,80.78,16,0,4.32,clear sky,0,0
422,Nantucket,US,2020-05-08 18:43:57,41.28,-70.1,54.0,57,20,11.41,few clouds,0,0
423,Isla Vista,US,2020-05-08 18:48:49,34.41,-119.86,84.0,88,1,9.17,fog,0,0
424,Xining,CN,2020-05-08 18:41:02,36.62,101.77,35.46,85,100,3.98,light snow,0,0
425,Trapani,IT,2020-05-08 18:48:49,37.83,12.67,68.0,68,92,11.41,overcast clouds,0,0
426,Matara,LK,2020-05-08 18:48:49,5.95,80.54,80.4,87,72,3.76,broken clouds,0,0
427,Ejido,VE,2020-05-08 18:48:50,8.55,-71.24,81.1,49,100,5.3,light rain,0,0
428,Eureka,US,2020-05-08 18:48:50,40.8,-124.16,60.01,76,29,1.99,scattered clouds,0,0
429,Zhezkazgan,KZ,2020-05-08 18:41:20,47.8,67.71,64.17,27,89,12.15,overcast clouds,0,0
430,Melfi,IT,2020-05-08 18:48:51,41.0,15.65,68.0,30,75,10.29,broken clouds,0,0
431,Kaitangata,NZ,2020-05-08 18:48:51,-46.28,169.85,48.99,86,2,1.01,clear sky,0,0
432,Dawson Creek,CA,2020-05-08 18:48:51,55.77,-120.24,55.4,62,40,3.36,scattered clouds,0,0
433,Broome,US,2020-05-08 18:48:51,42.25,-75.83,50.0,52,90,5.82,overcast clouds,0,0
434,Sinnamary,GF,2020-05-08 18:41:04,5.38,-52.95,80.53,75,73,11.45,broken clouds,0,0
435,Ponta Delgada,PT,2020-05-08 18:43:20,37.73,-25.67,60.8,82,40,13.87,scattered clouds,0,0
436,Along,IN,2020-05-08 18:48:54,28.17,94.77,63.07,80,23,1.9,few clouds,0,0
437,Kasongo-Lunda,CD,2020-05-08 18:39:51,-6.47,16.82,76.06,71,12,1.16,few clouds,0,0
438,Marysville,US,2020-05-08 18:48:54,48.05,-122.18,72.0,49,20,9.17,few clouds,0,0
439,Malinovskiy,RU,2020-05-08 18:48:55,61.2,62.84,63.97,50,99,9.73,overcast clouds,0,0
440,Chota,PE,2020-05-08 18:48:56,-6.55,-78.65,69.8,46,75,6.93,broken clouds,0,0
441,Awjilah,LY,2020-05-08 18:48:56,29.11,21.29,75.27,19,0,11.43,clear sky,0,0
442,Marsh Harbour,BS,2020-05-08 18:48:04,26.54,-77.06,74.97,58,8,12.21,clear sky,0,0
443,Fairbanks,US,2020-05-08 18:39:10,64.84,-147.72,60.01,30,75,11.41,broken clouds,0,0
444,Plaridel,PH,2020-05-08 18:48:57,14.89,120.86,86.0,74,75,5.82,broken clouds,0,0
445,Cleveland,US,2020-05-08 18:46:33,41.5,-81.7,39.99,69,90,18.34,overcast clouds,0,0
446,Samana,DO,2020-05-08 18:48:58,19.21,-69.34,91.4,63,40,11.41,scattered clouds,0,0
447,Krasnoyarsk,RU,2020-05-08 18:49:05,56.01,92.79,32.0,72,66,2.91,broken clouds,0,0
448,Fare,PF,2020-05-08 18:49:05,-16.7,-151.02,82.81,77,100,13.56,overcast clouds,0,0
449,Lebanon,US,2020-05-08 18:49:06,36.21,-86.29,55.99,93,90,5.82,mist,0,0
450,Odweyne,SO,2020-05-08 18:49:06,9.41,45.06,77.7,65,76,10.04,broken clouds,0,0
451,Kingsville,US,2020-05-08 18:49:06,27.52,-97.86,96.8,37,75,13.87,broken clouds,0,0
452,Makhinjauri,GE,2020-05-08 18:49:12,41.67,41.69,53.6,93,75,10.29,moderate rain,0,0
453,Shumskiy,RU,2020-05-08 18:49:12,54.83,99.13,37.38,80,46,6.58,scattered clouds,0,0
454,Moose Factory,CA,2020-05-08 18:49:14,51.26,-80.61,30.2,63,90,12.75,light snow,0,0
455,Luba,GQ,2020-05-08 18:41:50,3.46,8.55,78.8,100,40,3.36,scattered clouds,0,0
456,Zhigansk,RU,2020-05-08 18:40:00,66.77,123.37,15.98,95,100,16.28,overcast clouds,0,0
457,Tornio,FI,2020-05-08 18:49:15,65.85,24.15,37.4,59,99,2.24,overcast clouds,0,0
458,Rabo De Peixe,PT,2020-05-08 18:49:16,37.8,-25.58,62.6,67,40,17.22,scattered clouds,0,0
459,Istok,XK,2020-05-08 18:49:16,42.78,20.49,59.0,44,100,3.36,overcast clouds,0,0
460,Arman,RU,2020-05-08 18:49:16,59.7,150.17,34.18,87,33,2.89,scattered clouds,0,0
461,Bilibino,RU,2020-05-08 18:49:16,68.05,166.44,24.13,92,0,3.4,clear sky,0,0
462,Beloha,MG,2020-05-08 18:49:16,-25.17,45.05,66.09,81,3,11.23,clear sky,0,0
463,Jeremoabo,BR,2020-05-08 18:49:17,-10.07,-38.48,80.44,71,99,9.6,light rain,0,0
464,Lyuban,BY,2020-05-08 18:49:34,52.8,28.0,44.71,68,95,5.06,overcast clouds,0,0
465,Kirakira,SB,2020-05-08 18:49:51,-10.45,161.92,77.92,83,7,8.63,clear sky,0,0
466,Bay-Khaak,RU,2020-05-08 18:50:07,51.17,94.5,37.56,72,3,3.2,clear sky,0,0
467,Marsabit,KE,2020-05-08 18:50:27,2.33,37.99,69.49,80,100,16.51,overcast clouds,0,0
468,Gusinoye Ozero,RU,2020-05-08 18:50:27,51.11,106.26,37.85,78,100,4.68,overcast clouds,0,0
469,Mitzic,GA,2020-05-08 18:50:27,0.78,11.55,71.69,98,100,4.76,moderate rain,0,0
470,Baculin,PH,2020-05-08 18:50:27,7.45,126.58,78.89,74,6,7.47,clear sky,0,0
471,Cherskiy,RU,2020-05-08 18:50:28,68.75,161.3,28.22,93,0,5.88,clear sky,0,0
472,Angoche,MZ,2020-05-08 18:50:29,-16.23,39.91,73.72,82,43,10.96,light rain,0,0
473,Izumo,JP,2020-05-08 18:50:29,35.37,132.77,62.6,63,75,3.36,broken clouds,0,0
474,Conde,BR,2020-05-08 18:48:39,-7.26,-34.91,86.0,66,75,13.87,broken clouds,0,0
475,Veraval,IN,2020-05-08 18:50:30,20.9,70.37,81.46,85,0,9.15,clear sky,0,0
476,Panji,ID,2020-05-08 18:50:30,-7.73,114.1,76.62,80,80,4.81,broken clouds,0,0
477,Nadym,RU,2020-05-08 18:50:30,65.53,72.52,53.11,84,100,19.93,overcast clouds,0,0
478,Saint-Francois,FR,2020-05-08 18:50:30,46.42,3.91,73.4,53,100,4.7,overcast clouds,0,0
479,Kidal,ML,2020-05-08 18:50:31,18.44,1.41,93.24,9,0,9.82,clear sky,0,0
480,Dryden,CA,2020-05-08 18:50:31,49.78,-92.75,37.4,34,20,11.41,few clouds,0,0
481,Imeni Poliny Osipenko,RU,2020-05-08 18:50:31,52.42,136.49,31.39,95,0,9.26,clear sky,0,0
482,Selaru,RO,2020-05-08 18:50:32,44.47,25.3,61.0,44,94,4.7,overcast clouds,0,0
483,Katobu,ID,2020-05-08 18:50:32,-4.94,122.53,75.99,90,49,6.24,scattered clouds,0,0
484,Newport,GB,2020-05-08 18:46:20,51.59,-3.0,69.01,60,0,1.05,clear sky,0,0
485,Anadyr,RU,2020-05-08 18:50:34,64.75,177.48,37.4,74,100,40.26,overcast clouds,0,0
486,Wewak,PG,2020-05-08 18:50:34,-3.55,143.63,79.2,82,89,3.0,overcast clouds,0,0
487,Artyom,AZ,2020-05-08 18:50:34,40.47,50.33,59.0,87,0,4.7,clear sky,0,0
488,Riyadh,SA,2020-05-08 18:37:19,24.69,46.72,84.2,16,3,8.05,clear sky,0,0
489,Nizhneangarsk,RU,2020-05-08 18:50:35,55.78,109.55,31.37,91,0,7.76,clear sky,0,0
490,Tangping,CN,2020-05-08 18:50:35,22.03,111.93,79.61,91,96,4.65,overcast clouds,0,0
491,Ukiah,US,2020-05-08 18:45:59,39.15,-123.21,82.0,33,1,3.36,clear sky,0,0
492,Aksarka,RU,2020-05-08 18:50:36,66.56,67.8,44.08,93,100,14.05,overcast clouds,0,0
493,Lubango,AO,2020-05-08 18:50:36,-14.92,13.49,59.79,54,0,4.16,clear sky,0,0
494,Antalya,TR,2020-05-08 18:46:30,36.77,30.72,66.2,72,40,9.17,scattered clouds,0,0
495,Takahata,JP,2020-05-08 18:50:36,38.0,140.19,52.0,70,100,1.1,overcast clouds,0,0
496,Saint-Marc,HT,2020-05-08 18:50:36,19.11,-72.69,86.63,60,84,7.83,light rain,0,0
497,Aksha,RU,2020-05-08 18:50:37,50.28,113.29,47.28,54,100,4.23,overcast clouds,0,0
498,Solnechnyy,RU,2020-05-08 18:50:48,50.72,136.63,36.79,81,0,3.96,clear sky,0,0
499,Humenne,SK,2020-05-08 18:50:54,48.94,21.92,50.0,60,100,4.18,overcast clouds,0,0
500,Chiredzi,ZW,2020-05-08 18:51:11,-21.05,31.67,64.33,60,0,4.85,clear sky,0,0
501,Khani,GE,2020-05-08 18:51:11,41.96,42.96,51.8,100,90,9.17,light rain,0,0
502,Plouzane,FR,2020-05-08 18:51:30,48.38,-4.62,68.0,68,13,12.75,few clouds,0,0
503,Sheridan,US,2020-05-08 18:51:31,44.83,-106.92,59.0,32,1,2.26,clear sky,0,0
504,Coihaique,CL,2020-05-08 18:51:31,-45.58,-72.07,50.0,93,90,6.93,moderate rain,0,0
505,Netrakona,BD,2020-05-08 18:51:31,24.88,90.72,78.26,42,0,6.89,clear sky,0,0
506,Gizo,SB,2020-05-08 18:51:35,-8.1,156.84,82.2,77,8,6.35,clear sky,0,0
507,San Quintin,MX,2020-05-08 18:51:35,30.48,-115.95,74.64,47,0,10.0,clear sky,0,0
508,Bama,NG,2020-05-08 18:51:35,11.52,13.69,94.57,24,17,6.51,few clouds,0,0
509,Alakurtti,RU,2020-05-08 18:51:36,66.97,30.35,36.0,58,100,1.99,overcast clouds,0,0
510,Rocha,UY,2020-05-08 18:51:36,-34.48,-54.33,62.13,61,0,7.56,clear sky,0,0
511,Ninh Binh,VN,2020-05-08 18:51:37,20.25,105.97,80.98,86,58,7.85,broken clouds,0,0
512,Mwanza,TZ,2020-05-08 18:51:37,-2.52,32.9,73.4,73,20,8.28,few clouds,0,0
513,Cidreira,BR,2020-05-08 18:51:37,-30.18,-50.21,63.43,67,0,6.89,clear sky,0,0
514,Bowen,AU,2020-05-08 18:51:38,-20.02,148.23,68.0,93,4,4.7,clear sky,0,0
515,Kuandian,CN,2020-05-08 18:51:38,40.73,124.78,48.69,92,100,3.67,light rain,0,0
516,Qui Nhon,VN,2020-05-08 18:51:38,13.77,109.23,79.09,89,97,5.57,overcast clouds,0,0
517,Calvinia,ZA,2020-05-08 18:51:39,-31.47,19.78,67.14,24,0,4.07,clear sky,0,0
518,Sokoni,TZ,2020-05-08 18:44:21,-6.43,39.55,80.6,69,40,9.17,scattered clouds,0,0
519,Hualmay,PE,2020-05-08 18:51:39,-11.1,-77.61,73.67,68,5,11.45,clear sky,0,0
520,Zapolyarnyy,RU,2020-05-08 18:51:39,69.42,30.81,35.6,64,100,5.82,overcast clouds,0,0
521,Taksimo,RU,2020-05-08 18:51:39,56.34,114.88,33.44,87,93,3.27,overcast clouds,0,0
522,Nemuro,JP,2020-05-08 18:51:40,43.32,145.57,49.46,55,100,17.34,overcast clouds,0,0
523,Zyryanka,RU,2020-05-08 18:51:40,65.75,150.85,27.43,95,0,5.7,clear sky,0,0
524,Miguel Pereira,BR,2020-05-08 18:51:40,-22.45,-43.47,71.6,68,75,6.93,broken clouds,0,0
525,Shaghat,AM,2020-05-08 18:52:13,39.56,45.91,59.0,72,20,11.41,few clouds,0,0
526,San Marcos,US,2020-05-08 18:50:02,33.14,-117.17,82.99,73,1,9.17,clear sky,0,0
527,Yushu,CN,2020-05-08 18:53:19,44.8,126.53,50.16,94,45,7.05,scattered clouds,0,0
528,Pangoa,PE,2020-05-08 18:53:19,-12.12,-73.0,75.88,56,81,4.45,broken clouds,0,0
529,Dalmatovo,RU,2020-05-08 18:53:20,56.26,62.94,59.79,43,16,5.93,few clouds,0,0
530,Okoneshnikovo,RU,2020-05-08 18:53:20,54.84,75.08,62.26,50,0,6.42,clear sky,0,0
531,Wlodawa,PL,2020-05-08 18:53:20,51.55,23.55,55.4,71,98,1.12,overcast clouds,0,0
532,Valley City,US,2020-05-08 18:51:27,46.92,-98.0,46.4,36,40,6.93,scattered clouds,0,0
533,Port Lincoln,AU,2020-05-08 18:53:20,-34.73,135.87,53.26,64,0,23.31,clear sky,0,0
534,Mandera,KE,2020-05-08 18:53:21,3.94,41.87,84.97,59,100,8.16,overcast clouds,0,0
535,Bhawanigarh,IN,2020-05-08 18:53:21,30.27,76.03,88.41,24,0,4.47,clear sky,0,0
536,Mapiripan,CO,2020-05-08 18:53:21,2.89,-72.13,74.07,96,100,6.71,moderate rain,0,0
537,Kempsey,AU,2020-05-08 18:53:21,-31.08,152.83,55.4,93,90,3.36,overcast clouds,0,0
538,Anuradhapura,LK,2020-05-08 18:50:34,8.36,80.42,77.67,89,90,3.06,overcast clouds,0,0
539,Raudeberg,NO,2020-05-08 18:53:22,61.99,5.14,44.01,82,55,7.09,broken clouds,0,0
540,Rorvik,NO,2020-05-08 18:53:22,64.86,11.24,39.2,70,75,9.17,broken clouds,0,0
541,Kangaatsiaq,GL,2020-05-08 18:53:22,68.31,-53.46,32.04,89,99,17.63,overcast clouds,0,0
542,Kununurra,AU,2020-05-08 18:53:22,-15.77,128.73,62.6,88,0,3.06,clear sky,0,0
543,Taketa,JP,2020-05-08 18:53:24,32.97,131.38,53.92,90,90,3.06,overcast clouds,0,0
544,Falam,MM,2020-05-08 18:53:24,22.92,93.68,57.63,64,0,4.03,clear sky,0,0
545,Tucumcari,US,2020-05-08 18:53:24,35.17,-103.72,57.2,35,1,18.34,clear sky,0,0
546,Pilar,BR,2020-05-08 18:53:24,-9.6,-35.96,86.0,58,40,6.93,scattered clouds,0,0
547,Aripuana,BR,2020-05-08 18:53:24,-9.17,-60.63,86.14,57,83,3.04,broken clouds,0,0
548,Guiratinga,BR,2020-05-08 18:53:25,-16.35,-53.76,78.53,59,60,3.56,broken clouds,0,0
549,Lambarene,GA,2020-05-08 18:53:25,-0.7,10.24,78.71,90,100,5.01,moderate rain,0,0
550,Roebourne,AU,2020-05-08 18:53:26,-20.78,117.13,75.96,55,18,6.2,few clouds,0,0
551,Necochea,AR,2020-05-08 18:49:32,-38.55,-58.74,68.0,48,95,11.01,overcast clouds,0,0
552,Ossora,RU,2020-05-08 18:53:26,59.24,163.07,30.31,97,100,14.61,light snow,0,0
553,Athabasca,CA,2020-05-08 18:53:27,54.72,-113.29,55.92,39,19,9.15,few clouds,0,0
554,Tirat Karmel,IL,2020-05-08 18:53:27,32.76,34.97,73.99,60,7,14.0,clear sky,0,0
555,Houston,US,2020-05-08 18:52:52,29.76,-95.36,89.6,55,40,16.11,scattered clouds,0,0
556,Marrakesh,MA,2020-05-08 18:49:41,31.63,-8.01,77.0,47,20,12.75,few clouds,0,0
557,Ngunguru,NZ,2020-05-08 18:53:27,-35.62,174.5,46.99,6,25,1.99,scattered clouds,0,0
558,Sawai Madhopur,IN,2020-05-08 18:53:28,25.98,76.37,90.46,15,0,1.54,clear sky,0,0
559,Hengshui,CN,2020-05-08 18:53:28,37.73,115.7,50.29,95,1,5.79,clear sky,0,0
560,Wainwright,CA,2020-05-08 18:53:28,52.84,-110.86,49.24,66,100,17.83,overcast clouds,0,0
561,Ulaanbaatar,MN,2020-05-08 18:51:40,47.91,106.88,33.8,74,40,15.66,scattered clouds,0,0
562,Ballina,AU,2020-05-08 18:53:28,-28.87,153.57,61.0,93,75,4.7,broken clouds,0,0
